City_ID,City,Cloudiness,Country,Date,Humidity,Lat,Lng,Max Temp,Wind Speed
0,vao,80,EE,1541250417,92,59.1,26.19,48.02,12.46
1,sao joao da barra,20,BR,1541246400,65,-21.64,-41.05,80.6,16.11
2,gamba,8,CN,1541250417,56,28.28,88.52,19.9,4.85
3,vaini,64,IN,1541250418,98,15.34,74.49,73.4,2.39
4,mataura,0,NZ,1541250418,93,-46.19,168.86,43.25,12.12
5,esperance,20,TT,1541246400,70,10.24,-61.45,86.0,6.93
6,brae,92,GB,1541249400,87,60.4,-1.35,53.6,29.97
7,cape town,0,ZA,1541246400,14,-33.93,18.42,84.2,19.46
8,moron,88,VE,1541250419,95,10.49,-68.2,70.88,2.55
9,castro,92,CL,1541250378,100,-42.48,-73.76,49.42,15.14
10,la baule-escoublac,0,FR,1541248200,47,47.28,-2.4,55.4,6.93
11,aflao,20,TG,1541246400,66,6.12,1.19,87.8,11.41
12,hermanus,56,ZA,1541250420,21,-34.42,19.24,85.19,6.13
13,reconquista,32,AR,1541250420,93,-29.14,-59.64,74.84,6.13
14,arica,90,CL,1541246400,72,-18.48,-70.32,66.2,2.24
15,barrow,0,AR,1541250420,100,-38.31,-60.23,60.53,9.37
16,pevek,80,RU,1541250421,100,69.7,170.27,11.03,7.14
17,diamantino,12,BR,1541250422,83,-14.4,-56.44,80.2,7.65
18,san cristobal,75,EC,1541246400,87,-0.39,-78.55,53.6,2.24
19,desaguadero,8,PE,1541250422,46,-16.56,-69.04,41.63,3.78
20,broken hill,68,AU,1541250423,51,-31.97,141.45,68.63,9.15
21,huilong,0,CN,1541250423,66,28.89,110.18,51.22,2.39
22,chuy,0,UY,1541250424,99,-33.69,-53.46,64.13,11.05
23,kapaa,40,US,1541246160,81,22.08,-159.32,77.0,14.99
24,punta arenas,90,CL,1541246400,75,-53.16,-70.91,55.4,8.05
25,nikel,90,NO,1541249400,93,69.41,30.21,32.0,4.7
26,rikitea,88,PF,1541250426,95,-23.12,-134.97,75.02,20.07
27,dikson,12,RU,1541250427,92,73.51,80.55,23.14,14.63
28,provideniya,20,RU,1541250427,100,64.42,-173.23,36.23,15.64
29,east london,0,ZA,1541246400,60,-33.02,27.91,71.6,23.04
30,thompson,40,CA,1541248560,76,55.74,-97.86,-5.81,2.77
31,alice springs,40,AU,1541248200,26,-23.7,133.88,91.4,6.93
32,butaritari,0,KI,1541250428,100,3.07,172.79,84.65,7.87
33,hilo,90,US,1541248800,93,19.71,-155.08,71.06,4.7
34,atuona,92,PF,1541250429,100,-9.8,-139.03,80.2,12.39
35,vila,75,IT,1541247600,93,45.18,8.4,57.2,10.29
36,aklavik,5,CA,1541246400,72,68.22,-135.01,10.4,8.05
37,brzesko,75,PL,1541250000,93,49.97,20.61,53.6,8.05
38,husavik,92,CA,1541250430,100,50.56,-96.99,30.25,7.76
39,busselton,0,AU,1541250430,100,-33.64,115.35,61.43,17.2
40,saint george,20,GR,1541247600,68,39.45,22.34,68.0,11.41
41,avarua,75,CK,1541246400,94,-21.21,-159.78,77.0,4.7
42,ribeira grande,20,PT,1541248200,64,38.52,-28.7,71.6,12.75
43,hofn,92,IS,1541250431,100,64.25,-15.21,38.84,31.52
44,longyearbyen,20,NO,1541249400,67,78.22,15.63,23.0,27.51
45,dingle,36,PH,1541250432,81,11.0,122.67,81.5,12.06
46,raahe,68,FI,1541249400,86,64.68,24.47,39.2,11.41
47,macapa,75,BR,1541246400,66,0.05,-51.07,89.6,8.05
48,port alfred,0,ZA,1541250432,56,-33.59,26.89,76.46,19.17
49,airai,8,TL,1541250433,80,-8.93,125.41,71.51,1.5
50,okhotsk,64,RU,1541250433,100,59.36,143.24,17.74,14.29
51,northam,75,GB,1541249400,82,51.04,-4.21,55.4,19.46
52,cayenne,20,GF,1541248200,62,4.94,-52.33,87.8,5.82
53,maceio,40,BR,1541250000,58,-9.67,-35.74,86.0,16.11
54,upernavik,80,GL,1541250434,100,72.79,-56.15,23.95,12.12
55,askarovo,90,RU,1541248200,74,53.34,58.51,35.6,4.47
56,puerto ayora,75,EC,1541246400,77,-0.74,-90.35,69.8,3.36
57,jamestown,68,AU,1541250154,55,-33.21,138.6,59.54,3.62
58,yellowknife,90,CA,1541246400,92,62.45,-114.38,14.0,10.29
59,kieta,68,PG,1541250505,99,-6.22,155.63,79.61,4.12
60,samaipata,92,BO,1541250435,96,-18.18,-63.88,68.9,10.11
61,pilar,0,AR,1541246400,63,-34.46,-58.91,66.2,4.56
62,kati,0,ML,1541248200,19,12.75,-8.07,96.8,9.17
63,awjilah,8,LY,1541250436,42,29.14,21.3,82.76,4.79
64,umm kaddadah,0,SD,1541250437,14,13.6,26.69,95.27,4.74
65,albany,90,US,1541249460,89,42.65,-73.75,53.96,9.17
66,the valley,20,AI,1541246400,83,18.22,-63.06,82.4,10.29
67,fortuna,20,ES,1541248200,45,38.18,-1.13,66.2,4.7
68,luwingu,8,ZM,1541250439,38,-10.26,29.92,86.14,7.14
69,fier,36,AL,1541250439,61,40.73,19.56,76.24,2.84
70,sovetskaya,0,RU,1541250439,45,44.78,41.17,60.94,13.62
71,palmer,0,AU,1541248200,72,-34.85,139.16,59.0,6.93
72,bethel,1,US,1541245980,84,60.79,-161.76,21.92,11.41
73,nador,40,MA,1541248200,68,35.17,-2.93,68.0,6.93
74,carnarvon,76,ZA,1541250440,5,-30.97,22.13,85.69,14.41
75,guerrero negro,0,MX,1541250441,97,27.97,-114.04,54.23,2.84
76,taltal,32,CL,1541250442,92,-25.41,-70.49,59.36,0.72
77,bathsheba,40,BB,1541246400,74,13.22,-59.52,82.4,16.11
78,alakurtti,92,RU,1541250442,100,66.96,30.34,33.89,2.55
79,lisakovsk,0,KZ,1541250442,83,52.55,62.49,35.65,4.12
80,kavieng,8,PG,1541250442,100,-2.57,150.8,82.22,8.55
81,boguchany,76,RU,1541250443,66,58.38,97.46,25.97,9.26
82,port hawkesbury,90,CA,1541247240,100,45.62,-61.36,51.8,5.82
83,yulara,100,AU,1541246400,48,-25.24,130.99,82.4,16.11
84,mirpur khas,0,PK,1541250443,34,25.53,69.01,84.83,6.58
85,maningrida,8,AU,1541250444,69,-12.05,134.23,85.64,11.61
86,karatuzskoye,80,RU,1541250444,75,53.61,92.87,29.17,4.79
87,westlock,90,CA,1541246400,92,54.15,-113.85,28.4,8.05
88,hobart,20,AU,1541248200,50,-42.88,147.33,53.6,19.46
89,teya,75,MX,1541245740,94,21.05,-89.07,75.2,5.82
90,firminy,90,FR,1541248200,81,45.39,4.29,50.0,3.36
91,banda aceh,92,ID,1541250446,88,5.56,95.32,78.62,6.08
92,kruisfontein,0,ZA,1541250446,63,-34.0,24.73,75.56,12.28
93,makakilo city,40,US,1541247300,94,21.35,-158.09,78.98,3.36
94,nhulunbuy,0,AU,1541248200,74,-12.18,136.78,80.6,4.7
95,ushuaia,40,AR,1541246400,61,-54.81,-68.31,50.0,23.04
96,khatanga,80,RU,1541250447,82,71.98,102.47,5.72,10.11
97,behbahan,0,IR,1541246400,9,30.59,50.24,80.6,2.28
98,ahipara,92,NZ,1541250448,90,-35.17,173.16,60.94,21.97
99,khash,8,IR,1541250448,7,28.22,61.21,59.14,12.28
100,buraydah,90,SA,1541246400,93,26.33,43.97,64.4,4.7
101,los llanos de aridane,40,ES,1541248200,60,28.66,-17.92,75.2,14.99
102,kaitangata,8,NZ,1541250449,75,-46.28,169.85,45.64,18.84
103,mar del plata,0,AR,1541250449,58,-46.43,-67.52,54.5,10.94
104,kropotkin,0,RU,1541250450,47,45.43,40.58,62.69,15.3
105,constitucion,0,MX,1541250450,74,23.99,-104.67,38.66,4.23
106,port elizabeth,90,US,1541249700,76,39.31,-74.98,53.96,18.34
107,anloga,20,GH,1541246400,66,5.79,0.9,87.8,11.41
108,tuktoyaktuk,36,CA,1541250453,99,69.44,-133.03,12.29,10.56
109,tessalit,0,ML,1541250453,25,20.2,1.01,91.54,8.77
110,ostrovnoy,88,RU,1541250453,99,68.05,39.51,32.72,9.93
111,marystown,88,CA,1541250454,100,47.17,-55.16,44.96,15.14
112,miandrivazo,0,MG,1541250454,26,-19.53,45.46,91.85,9.93
113,deputatskiy,64,RU,1541250454,28,69.3,139.9,-20.52,2.77
114,bluff,0,AU,1541250454,56,-23.58,149.07,74.12,10.94
115,marawi,56,PH,1541250454,97,8.0,124.29,69.85,2.06
116,sesimbra,75,PT,1541248200,82,38.45,-9.1,60.8,9.17
117,ikovka,48,RU,1541250455,88,55.61,64.94,35.2,5.35
118,georgetown,40,GY,1541246400,94,6.8,-58.16,78.8,6.93
119,san patricio,92,PY,1541250456,100,-26.98,-56.83,70.84,3.78
120,covington,90,US,1541249760,100,35.56,-89.65,42.98,3.36
121,nizwa,0,OM,1541250456,27,22.93,57.53,86.0,1.88
122,tasiilaq,40,GL,1541249400,53,65.61,-37.64,23.0,3.36
123,grand island,90,US,1541249820,88,40.92,-98.34,42.08,10.29
124,souillac,0,FR,1541248200,66,45.6,-0.6,53.6,10.29
125,victoria,75,BN,1541248200,83,5.28,115.24,84.2,8.05
126,green river,75,US,1541246040,75,41.53,-109.47,30.92,11.41
127,kalmunai,92,LK,1541250458,100,7.42,81.82,76.1,4.56
128,adrar,0,DZ,1541246400,29,27.87,-0.29,75.2,11.41
129,khandyga,56,RU,1541250459,80,62.65,135.58,10.13,6.76
130,talnakh,76,RU,1541250459,80,69.49,88.39,1.27,4.74
131,dolores,68,AR,1541250460,100,-36.31,-57.68,59.77,7.31
132,bilma,8,NE,1541250460,16,18.69,12.92,94.69,7.02
133,atbasar,80,KZ,1541250460,85,51.81,68.36,33.49,4.9
134,beringovskiy,88,RU,1541250460,100,63.05,179.32,31.64,9.44
135,evensk,76,RU,1541250461,100,61.92,159.24,12.65,12.28
136,kaeo,92,NZ,1541250461,82,-35.1,173.78,60.67,18.84
137,tanabe,56,JP,1541250461,81,33.73,135.39,55.9,4.63
138,teguldet,80,RU,1541250461,78,57.31,88.17,28.72,7.65
139,juiz de fora,56,BR,1541250462,97,-21.76,-43.35,71.29,6.35
140,tagusao,20,PH,1541250462,93,9.19,117.81,81.37,6.13
141,samarai,56,PG,1541250462,100,-10.62,150.67,78.67,12.62
142,arraial do cabo,0,BR,1541246400,65,-22.97,-42.02,82.4,17.22
143,dongying,8,CN,1541250463,71,37.43,118.67,54.37,12.06
144,aswan,0,EG,1541246400,19,24.09,32.9,89.6,9.17
145,lebu,20,ET,1541246400,36,8.96,38.73,75.2,9.17
146,saldanha,0,PT,1541250463,63,41.42,-6.55,56.75,4.0
147,iwanai,0,JP,1541250463,97,42.97,140.51,55.22,16.93
148,nebolchi,92,RU,1541250464,97,59.12,33.35,48.83,6.91
149,hithadhoo,92,MV,1541250464,100,-0.6,73.08,82.13,7.92
150,tudor vladimirescu,8,RO,1541250464,72,45.56,27.65,62.6,4.74
151,mount gambier,88,AU,1541250465,71,-37.83,140.78,55.9,3.11
152,ponta do sol,0,BR,1541250465,78,-20.63,-46.0,75.34,13.4
153,kikwit,100,CD,1541250465,92,-5.04,18.82,75.65,6.02
154,lavrentiya,8,RU,1541250465,100,65.58,-170.99,37.4,23.09
155,harer,0,US,1541250465,68,42.19,-111.17,28.49,6.8
156,petropavlovsk-kamchatskiy,64,RU,1541246400,98,53.05,158.65,32.0,2.24
157,pingliang,76,CN,1541250466,60,35.54,106.68,39.52,6.91
158,kavaratti,92,IN,1541250466,100,10.57,72.64,77.5,8.66
159,iqaluit,75,CA,1541246400,78,63.75,-68.52,12.2,2.24
160,peniche,75,PT,1541248200,82,39.36,-9.38,59.0,9.17
161,bambous virieux,75,MU,1541246400,65,-20.34,57.76,80.6,14.99
162,ayni,68,TJ,1541250467,90,39.39,68.54,26.6,2.1
163,roma,75,IT,1541247600,77,41.89,12.48,69.8,9.17
164,linqiong,0,CN,1541246400,52,30.42,103.46,66.2,4.47
165,namatanai,92,PG,1541250468,100,-3.66,152.44,83.57,9.1
166,narsaq,75,GL,1541249400,68,60.91,-46.05,24.8,3.36
167,norman wells,75,CA,1541246400,84,65.28,-126.83,1.4,3.36
168,sorong,32,ID,1541250469,100,-0.86,131.25,82.76,8.03
169,pacific grove,1,US,1541248500,70,36.62,-121.92,50.0,3.74
170,banes,20,CU,1541245800,100,20.96,-75.72,71.6,1.12
171,huarmey,12,PE,1541250470,76,-10.07,-78.15,62.6,3.11
172,sakaraha,20,MG,1541250470,48,-22.91,44.53,81.41,10.94
173,sitka,76,US,1541250470,80,37.17,-99.65,41.5,3.89
174,chokurdakh,68,RU,1541250471,63,70.62,147.9,-7.69,3.29
175,renukut,68,IN,1541250471,54,24.22,83.04,80.69,2.89
176,saint-philippe,90,CA,1541248500,100,45.36,-73.48,41.0,5.82
177,sao felix do xingu,0,BR,1541250471,87,-6.64,-51.99,81.5,2.1
178,blagoyevo,92,RU,1541250471,98,63.37,47.92,33.98,5.53
179,kargasok,68,RU,1541250472,70,59.06,80.87,17.2,7.81
180,matamoros,1,US,1541249580,89,25.87,-97.51,62.96,5.82
181,saskylakh,80,RU,1541250472,82,71.97,114.09,0.77,3.29
182,waitati,12,NZ,1541250472,66,-45.75,170.57,45.68,10.56
183,cherskiy,20,RU,1541250473,70,68.75,161.3,-5.44,2.51
184,new norfolk,20,AU,1541248200,50,-42.78,147.06,53.6,19.46
185,mumford,68,GH,1541250473,91,5.26,-0.76,82.27,7.92
186,sawakin,20,SD,1541250473,65,19.1,37.33,87.26,3.51
187,yerbogachen,68,RU,1541250473,60,61.28,108.01,16.43,10.6
188,bredasdorp,92,ZA,1541246400,34,-34.53,20.04,82.4,6.93
189,arlit,0,NE,1541250334,18,18.74,7.39,96.89,9.78
190,galveston,1,US,1541248500,82,40.58,-86.19,35.6,4.7
191,ornskoldsvik,0,SE,1541249400,100,63.29,18.72,42.8,13.87
192,maple creek,76,CA,1541250474,98,49.91,-109.46,28.94,3.89
193,kahului,1,US,1541246040,79,20.89,-156.47,77.0,13.87
194,maun,0,BW,1541246400,33,-19.99,23.42,91.4,9.17
195,mirabad,8,IR,1541250475,7,28.27,61.33,59.14,12.28
196,gigmoto,80,PH,1541250475,100,13.78,124.39,81.32,10.45
197,turbat,12,PK,1541250476,8,26.0,63.05,80.42,18.43
198,van,75,TR,1541245800,91,38.51,43.37,57.2,9.17
199,caravelas,12,BR,1541250477,100,-17.73,-39.27,77.9,10.94
200,manggar,80,ID,1541250477,100,-2.88,108.27,76.87,2.77
201,sokoni,48,CD,1541250477,36,-12.89,28.78,88.16,6.08
202,nanzhang,0,CN,1541250478,70,31.78,111.84,51.67,2.06
203,qaanaaq,0,GL,1541250478,100,77.48,-69.36,0.68,11.27
204,grindavik,75,IS,1541248200,74,63.84,-22.43,33.8,27.51
205,boyabat,0,TR,1541250478,49,41.47,34.77,59.99,3.11
206,bireun,64,ID,1541250478,100,5.2,96.7,79.88,10.04
207,elizabeth city,1,US,1541249940,63,36.3,-76.22,58.28,21.92
208,nouakchott,0,MR,1541250479,87,18.08,-15.98,75.7,9.78
209,vardo,75,US,1541249400,71,39.62,-77.74,51.8,10.33
210,villarrica,8,CL,1541250479,90,-39.28,-72.23,48.52,4.23
211,grand-lahou,80,CI,1541250479,77,5.24,-5.0,84.79,6.64
212,vilnius,90,LT,1541247600,87,54.69,25.28,51.8,4.7
213,madera,1,US,1541248500,81,36.96,-120.06,53.96,3.36
214,neiafu,40,TO,1541246400,56,-18.65,-173.98,69.8,9.17
215,tyrma,56,RU,1541250480,65,50.04,132.17,26.24,7.54
216,brooks,68,CA,1541250481,92,50.57,-111.89,25.07,4.07
217,hasaki,40,JP,1541248200,87,35.73,140.83,53.6,1.12
218,prado,80,BR,1541250351,97,-17.34,-39.22,77.95,10.83
219,ladario,12,PT,1541250482,93,40.7,-7.74,52.97,3.33
220,clyde river,90,CA,1541246400,77,70.47,-68.59,5.0,10.29
221,klyuchi,88,RU,1541250483,95,52.25,79.17,32.99,9.66
222,kapuskasing,90,CA,1541246400,74,49.42,-82.43,30.2,4.7
223,amuntai,36,ID,1541250483,97,-2.42,115.25,76.19,1.1
224,tambovka,0,UA,1541250484,55,46.93,35.45,57.92,9.82
225,tateyama,20,JP,1541246400,76,36.66,137.31,53.6,4.7
226,nishihara,1,JP,1541249760,77,35.74,139.53,64.4,2.73
227,hualmay,24,PE,1541250485,86,-11.1,-77.61,62.87,4.07
228,iberia,8,PE,1541250485,76,-11.41,-69.49,81.59,4.41
229,de panne,68,BE,1541249700,61,51.1,2.59,50.0,10.29
230,locri,40,IT,1541246100,53,38.24,16.26,77.0,11.41
231,seymchan,80,RU,1541250486,96,62.93,152.39,5.27,4.85
232,ballina,75,IE,1541248200,93,54.11,-9.15,50.0,19.46
233,kalanguy,0,RU,1541250486,61,51.01,116.52,-0.31,4.12
234,kodiak,90,US,1541249580,96,39.95,-94.76,44.96,6.87
235,beloha,100,MG,1541250487,77,-25.17,45.06,69.71,17.49
236,novikovo,0,UA,1541250487,92,45.05,34.56,55.9,5.57
237,nakamura,75,JP,1541248200,67,35.17,136.87,60.8,6.93
238,colquechaca,8,BO,1541250487,30,-18.7,-66.0,52.61,2.21
239,koungheul,0,SN,1541250488,45,13.98,-14.8,92.84,11.95
240,port macquarie,75,AU,1541248440,83,-31.43,152.91,73.4,14.99
241,santa vitoria do palmar,0,BR,1541250488,99,-33.52,-53.37,64.13,11.05
242,keetmanshoop,0,NA,1541246400,5,-26.57,18.15,96.8,16.11
243,mandalgovi,8,MN,1541250489,70,45.76,106.27,16.88,4.41
244,shiyan,8,CN,1541250489,75,32.65,110.78,48.83,2.1
245,san joaquin,36,PH,1541250489,81,10.59,122.14,81.5,12.06
246,hami,0,CN,1541250489,51,42.84,93.51,34.07,3.74
247,manta,44,RO,1541250490,72,45.1,24.1,61.7,4.0
248,maniitsoq,0,GL,1541250490,100,65.42,-52.9,13.37,5.53
249,vung tau,75,VN,1541248200,79,10.35,107.08,84.2,2.24
250,aykhal,76,RU,1541250491,72,65.95,111.51,5.05,10.04
251,matara,90,PE,1541246400,60,-13.74,-72.9,42.8,5.82
252,novyy yarychiv,0,UA,1541248200,77,49.9,24.31,64.4,4.47
253,tselinnoye,0,UA,1541250491,81,45.9,34.18,57.92,11.05
254,jagdispur,0,IN,1541250000,78,25.47,84.42,77.0,5.64
255,korcula,0,HR,1541246400,68,42.96,17.14,68.0,2.24
256,nagato,75,JP,1541246400,67,34.35,131.14,62.6,3.36
257,knysna,24,ZA,1541246400,30,-34.04,23.05,80.6,9.17
258,kassala,0,SD,1541250493,43,15.45,36.38,90.64,5.57
259,solnechnyy,76,RU,1541250493,90,50.72,136.64,33.98,6.76
260,chumikan,0,RU,1541250493,87,54.72,135.31,24.53,11.9
261,talhar,0,PK,1541250493,28,24.88,68.82,89.06,6.87
262,ancud,92,CL,1541250493,97,-41.87,-73.83,50.32,15.64
263,vanavara,68,RU,1541250494,72,60.35,102.28,19.9,9.55
264,atambua,8,ID,1541250494,90,-9.11,124.89,82.09,3.78
265,smolenka,92,PL,1541250494,98,54.15,22.76,50.0,8.03
266,vila velha,75,BR,1541250000,55,-3.71,-38.6,87.8,21.92
267,zhigansk,76,RU,1541250495,82,66.77,123.37,1.22,5.08
268,mahebourg,75,MU,1541246400,65,-20.41,57.7,80.6,14.99
269,khapa,20,IN,1541250000,58,21.42,78.98,82.4,2.84
270,camacha,40,PT,1541248200,72,33.08,-16.33,68.0,11.41
271,karpathos,0,GR,1541247600,64,35.51,27.21,73.4,18.34
272,fundao,40,BR,1541246400,69,-19.93,-40.4,82.4,3.36
273,bolshaya martynovka,20,RU,1541250496,51,47.27,41.67,56.66,13.69
274,severo-kurilsk,80,RU,1541250496,100,50.68,156.12,40.24,11.83
275,belmonte,0,PT,1541250497,88,40.36,-7.35,59.9,4.0
276,sucua,0,EC,1541250497,77,-2.46,-78.17,63.14,2.06
277,pisco,75,PE,1541246400,30,-13.71,-76.2,71.6,3.36
278,mariestad,0,SE,1541249400,61,58.71,13.82,48.2,13.87
279,kizukuri,20,JP,1541246400,76,40.81,140.39,50.0,11.41
280,mogadouro,0,PT,1541250498,63,41.34,-6.71,56.75,4.0
281,gasa,36,BT,1541250498,69,27.91,89.73,19.31,2.55
282,pijijiapan,44,MX,1541250498,100,15.69,-93.21,68.45,2.39
283,flin flon,90,CA,1541246400,63,54.77,-101.88,26.6,4.7
284,murgab,0,TM,1541246400,45,37.5,61.97,46.4,6.93
285,rudraprayag,92,IN,1541250500,94,30.29,78.98,49.1,1.72
286,tura,20,IN,1541250500,90,25.52,90.21,71.69,2.89
287,khonsa,12,IN,1541250501,94,26.99,95.51,63.14,1.61
288,tilichiki,88,RU,1541250501,90,60.47,166.1,12.25,4.12
289,isfana,44,KG,1541248200,75,39.84,69.53,41.0,6.71
290,portland,75,US,1541249580,89,45.52,-122.67,53.06,5.82
291,liverpool,90,GB,1541249400,76,53.41,-2.98,55.4,17.22
292,skjervoy,92,NO,1541250502,100,70.03,20.97,41.72,19.66
293,jinchang,36,CN,1541250502,79,38.52,102.19,28.27,2.73
294,alacranes,40,CU,1541248380,100,22.77,-81.57,73.4,3.36
295,bealanana,80,MG,1541250503,70,-14.54,48.75,72.37,1.21
296,namibe,0,AO,1541250503,100,-15.19,12.15,72.55,13.35
297,avera,1,US,1541248500,97,33.19,-82.53,46.04,3.36
298,lorengau,24,PG,1541250504,100,-2.02,147.27,82.94,9.44
299,niquero,0,CU,1541250504,100,20.04,-77.58,79.16,6.91
300,yar-sale,8,RU,1541250504,100,66.83,70.83,14.81,8.88
301,ulladulla,0,AU,1541250504,87,-35.36,150.48,65.12,13.91
302,kununurra,24,AU,1541248200,83,-15.77,128.74,77.0,4.7
303,piacabucu,32,BR,1541250505,62,-10.41,-36.43,84.25,11.45
304,harper,1,US,1541249700,75,30.3,-99.24,53.06,6.93
305,ketchikan,90,US,1541247060,92,55.34,-131.65,51.08,12.75
306,podgornoye,68,RU,1541250576,69,57.79,82.64,21.97,8.14
307,colombia,64,CO,1541250506,92,3.38,-74.8,66.25,0.98
308,berdigestyakh,80,RU,1541250506,67,62.1,126.7,10.09,10.89
309,hinton,32,CA,1541250507,80,53.4,-117.57,29.89,4.29
310,muisne,64,EC,1541250507,93,0.61,-80.02,72.77,6.91
311,mehamn,92,NO,1541250507,94,71.03,27.85,32.77,3.89
312,christchurch,64,NZ,1541248200,58,-43.53,172.64,55.4,10.29
313,baghdad,75,IQ,1541250000,46,33.3,44.38,73.4,5.82
314,inhambane,75,MZ,1541246400,44,-23.87,35.38,77.0,17.22
315,dunda,92,IN,1541250508,100,30.62,78.32,40.24,1.39
316,puerto colombia,75,CO,1541246400,94,10.99,-74.96,77.0,3.62
317,emerald,0,AU,1541250433,51,-23.53,148.16,73.94,11.45
318,ilulissat,40,GL,1541249400,72,69.22,-51.1,14.0,19.46
319,bilibino,88,RU,1541250509,79,68.06,166.44,0.82,2.73
320,oudtshoorn,56,ZA,1541246400,30,-33.59,22.2,80.6,9.17
321,naze,75,NG,1541246400,66,5.43,7.07,89.6,5.82
322,nanortalik,0,GL,1541250509,98,60.14,-45.24,31.24,15.19
323,gorontalo,64,ID,1541250510,95,0.54,123.06,75.2,1.83
324,cabadiangan,75,PH,1541250000,78,10.45,123.98,82.4,3.36
325,oum hadjer,0,TD,1541250510,22,13.3,19.7,99.64,7.09
326,negara,76,ID,1541250510,93,-8.36,114.62,79.07,6.13
327,hanzhong,92,CN,1541250510,65,33.08,107.03,52.97,2.1
328,salinas,1,US,1541248500,70,36.67,-121.66,50.0,3.74
329,meadow lake,90,CA,1541246400,86,54.13,-108.44,26.6,5.82
330,nikolskoye,40,RU,1541248200,81,59.7,30.79,50.0,13.42
331,beatrice,90,US,1541249700,93,40.27,-96.75,44.6,8.05
332,venice,20,US,1541248500,82,27.1,-82.45,66.02,12.75
333,tubuala,75,PA,1541250000,100,9.52,-79.03,77.0,2.24
334,kyren,8,RU,1541250512,69,51.68,102.13,-4.86,2.1
335,kansanshi,24,ZM,1541250512,86,-12.1,26.43,74.44,6.64
336,nome,1,US,1541249700,88,30.04,-94.42,55.94,4.7
337,ambon,0,FR,1541248200,47,47.55,-2.56,55.4,6.93
338,leshukonskoye,92,RU,1541250513,98,64.9,45.76,34.07,5.41
339,evanston,1,US,1541248500,94,42.04,-87.69,35.96,6.08
340,geraldton,90,CA,1541246400,92,49.72,-86.95,28.4,3.11
341,ixtapa,90,MX,1541245740,100,20.71,-105.21,73.4,3.36
342,ialibu,76,PG,1541250514,98,-6.28,143.99,57.38,2.1
343,bastia,40,IT,1541247600,63,44.6,8.98,64.4,9.17
344,gat,0,SN,1541246400,23,14.69,-16.54,96.8,6.93
345,tiksi,0,RU,1541250514,57,71.64,128.87,-12.06,6.24
346,novyy urengoy,8,RU,1541250515,86,66.08,76.63,18.1,20.85
347,khakhea,0,BW,1541250515,20,-24.69,23.5,91.67,14.63
348,sereflikochisar,0,TR,1541250515,57,38.94,33.54,62.51,4.34
349,anadyr,20,RU,1541246400,92,64.73,177.51,23.0,4.47
350,irbeyskoye,68,RU,1541250516,63,55.64,95.45,29.48,16.2
351,hambantota,64,LK,1541250516,100,6.12,81.12,79.79,7.65
352,lucapa,88,AO,1541250516,90,-8.42,20.74,74.8,4.23
353,te anau,64,NZ,1541250516,96,-45.41,167.72,39.2,8.93
354,tazovskiy,68,RU,1541250518,83,67.47,78.7,17.65,23.24
355,alofi,0,NU,1541246400,56,-19.06,-169.92,71.6,13.87
356,lexington park,40,US,1541249700,87,38.26,-76.45,51.8,9.17
357,sisimiut,76,GL,1541250518,100,66.94,-53.67,18.5,5.3
358,uruacu,80,BR,1541250520,89,-14.52,-49.14,76.82,4.34
359,nantucket,90,US,1541249340,96,41.28,-70.1,64.4,11.41
360,hokitika,64,NZ,1541250520,100,-42.72,170.96,50.45,18.1
361,tuatapere,32,NZ,1541250521,100,-46.13,167.69,46.4,21.41
362,fort nelson,75,CA,1541246400,84,58.81,-122.69,6.8,2.24
363,rawson,0,AR,1541250525,78,-43.3,-65.11,56.66,5.79
364,thiruvananthapuram,75,IN,1541248200,78,8.48,76.92,82.4,3.36
365,sinegorye,80,RU,1541250525,81,62.09,150.53,1.04,2.77
366,marsa matruh,20,EG,1541246400,65,31.35,27.25,77.0,11.41
367,torbay,90,CA,1541246880,100,47.66,-52.73,42.8,9.17
368,shepsi,0,RU,1541250527,99,44.04,39.15,66.29,4.74
369,brigantine,90,US,1541249760,83,39.41,-74.36,55.94,17.22
370,ishigaki,8,JP,1541250527,99,24.34,124.16,78.44,10.56
371,taoudenni,0,ML,1541250527,30,22.68,-3.98,79.97,13.18
372,vozdvizhenka,44,RU,1541250529,83,56.12,60.78,35.2,6.02
373,las cruces,0,CL,1541250000,77,-33.5,-71.62,60.8,4.7
374,faya,40,SA,1541246400,39,18.39,42.45,71.6,12.75
375,leningradskiy,68,RU,1541250529,100,69.38,178.42,18.68,6.53
376,bandarbeyla,68,SO,1541250530,100,9.49,50.81,79.57,16.87
377,amapa,40,HN,1541250000,88,15.09,-87.97,77.0,4.7
378,shubarkuduk,68,KZ,1541250530,57,49.15,56.49,41.77,11.05
379,taos,90,US,1541249760,81,36.41,-105.57,35.96,18.34
380,saint-pierre,0,FR,1541248200,76,48.95,4.24,53.6,8.05
381,tahe,12,CN,1541250531,63,52.34,124.71,15.08,4.23
382,bar harbor,90,US,1541248860,92,44.39,-68.2,46.04,8.05
383,kaihua,24,CN,1541250534,96,29.14,118.41,55.94,2.51
384,port-cartier,90,CA,1541248140,100,50.03,-66.88,33.8,11.41
385,mahanoro,36,MG,1541250534,67,-19.9,48.8,81.32,5.75
386,najran,20,SA,1541246400,34,17.54,44.22,80.6,9.17
387,victor harbor,0,AU,1541248200,72,-35.55,138.62,59.0,6.93
388,soldotna,1,US,1541246160,51,60.48,-151.07,35.06,8.05
389,whitehorse,90,CA,1541246400,91,60.72,-135.06,3.2,2.24
390,aleksandrov gay,56,RU,1541250535,46,50.14,48.57,45.05,5.75
391,qidong,0,CN,1541250535,95,31.81,121.66,61.75,7.87
392,cabo san lucas,5,MX,1541247000,82,22.89,-109.91,60.8,4.7
393,inirida,92,CO,1541250536,98,3.87,-67.92,72.1,3.22
394,malanje,36,AO,1541250536,72,-9.54,16.35,79.75,4.74
395,camopi,44,GF,1541250537,75,3.17,-52.33,82.72,3.0
396,seoul,0,KR,1541250000,87,37.57,126.98,50.0,2.24
397,yeppoon,0,AU,1541248200,77,-23.13,150.74,69.8,5.82
398,cidreira,92,BR,1541250537,100,-30.17,-50.22,68.72,8.43
399,baherden,0,TM,1541250538,75,38.44,57.43,44.2,7.09
400,jalu,0,LY,1541250538,40,29.03,21.55,83.57,4.74
401,bermeo,20,ES,1541250000,55,43.42,-2.72,60.8,4.7
402,grants,1,US,1541249700,82,35.15,-107.85,34.16,8.05
403,hoquiam,90,US,1541250060,96,46.98,-123.89,55.04,6.93
404,aksu,90,KZ,1541248200,95,52.04,76.93,33.8,6.71
405,salalah,20,OM,1541245800,54,17.01,54.1,84.2,9.17
406,gotsu,0,JP,1541250540,94,35.01,132.22,50.72,5.3
407,nkhata bay,0,MW,1541250544,49,-11.61,34.3,85.15,3.89
408,bagdarin,0,RU,1541250544,55,54.44,113.59,-3.37,2.73
409,yumen,8,CN,1541250546,63,40.29,97.04,25.97,4.85
410,kenai,90,US,1541246160,56,60.55,-151.26,35.06,16.11
411,praia da vitoria,75,PT,1541246400,82,38.73,-27.07,68.0,6.8
412,vanimo,24,PG,1541250547,100,-2.67,141.3,84.34,14.18
413,lumeje,44,AO,1541250547,66,-11.56,20.78,82.67,7.31
414,sinnamary,8,GF,1541250548,93,5.38,-52.96,82.54,6.24
415,porto walter,0,BR,1541250548,85,-8.27,-72.74,78.85,2.89
416,flinders,0,AU,1541250549,57,-34.58,150.85,66.74,3.29
417,ostersund,0,SE,1541247600,74,63.18,14.64,37.4,11.41
418,bokovskaya,56,RU,1541250550,49,49.23,41.83,49.64,9.55
419,new iberia,1,US,1541248500,100,30.0,-91.82,51.08,2.84
420,henties bay,36,NA,1541250550,92,-22.12,14.28,65.89,9.1
421,shenzhen,40,CN,1541248200,73,22.54,114.05,75.2,4.7
422,elko,40,US,1541249760,49,40.83,-115.76,39.02,9.17
423,novouralsk,68,RU,1541250551,87,57.25,60.1,34.75,5.3
424,rondonopolis,12,BR,1541250552,84,-16.46,-54.64,79.25,5.79
425,novoagansk,68,RU,1541250552,77,61.94,76.66,15.04,8.37
426,lexington,1,US,1541248500,100,38.05,-84.5,35.96,2.84
427,terrak,20,NO,1541249400,80,65.09,12.37,41.0,12.75
428,marsh harbour,20,BS,1541250555,98,26.54,-77.06,81.68,13.18
429,broome,20,GB,1541249760,71,52.47,1.45,55.4,13.87
430,port lincoln,56,AU,1541250560,98,-34.72,135.86,57.79,7.02
431,fort saint james,88,CA,1541250560,100,54.43,-124.25,37.0,6.08
432,san pedro,0,AR,1541250561,92,-33.68,-59.66,67.55,6.02
433,port-gentil,75,GA,1541246400,74,-0.72,8.78,86.0,14.99
434,yichang,0,CN,1541250562,71,30.77,111.32,54.86,2.28
435,kirsanov,64,RU,1541250562,93,52.65,42.73,39.11,9.04
436,barcelos,75,PT,1541248200,87,41.53,-8.62,59.0,5.82
437,guerrero,20,AR,1541246400,65,-24.19,-65.45,77.0,5.82
438,sovetskiy,88,RU,1541250563,97,56.76,48.47,37.27,11.05
439,yarmouth,75,GB,1541249400,71,50.71,-1.5,55.4,17.22
440,mugumu,32,TZ,1541250564,89,-1.84,34.67,69.85,2.55
441,burgersdorp,0,ZA,1541250564,23,-30.99,26.32,75.56,10.38
442,morada nova,12,BR,1541250564,48,-5.1,-38.37,86.99,11.27
443,illela,0,NG,1541250564,31,12.39,4.75,97.61,6.42
444,honiara,40,SB,1541246400,94,-9.43,159.96,75.2,2.24
445,atar,0,MR,1541246400,30,20.52,-13.05,82.4,13.87
446,sinop,0,TR,1541250565,95,42.03,35.15,64.94,10.56
447,bonthe,24,SL,1541250565,58,7.53,-12.5,92.3,2.1
448,cairns,75,AU,1541248200,78,-16.92,145.77,77.0,10.29
449,hedaru,32,TZ,1541250566,41,-4.5,37.91,87.94,11.27
450,karjat,40,IN,1541250000,62,18.91,73.32,89.6,8.05
451,palauig,32,PH,1541250566,94,15.44,119.9,79.7,5.08
452,george,40,NG,1541246400,70,6.63,3.35,89.6,4.7
453,sunndalsora,40,NO,1541249400,93,62.68,8.55,44.6,13.87
454,luderitz,48,NA,1541246400,82,-26.65,15.16,60.8,13.87
455,verkh-usugli,44,RU,1541250568,59,52.7,115.17,6.08,2.39
456,tonantins,36,BR,1541250568,93,-2.86,-67.77,78.08,3.51
457,nadym,68,RU,1541250568,89,65.53,72.51,25.07,12.28
458,coahuayana,76,MX,1541250568,68,18.62,-100.35,64.94,3.56
459,tazmalt,40,DZ,1541246400,72,36.39,4.4,62.6,20.8
460,sur,0,OM,1541250569,95,22.57,59.53,78.62,16.82
461,hamilton,90,CA,1541247240,93,43.26,-79.87,39.2,6.93
462,noumea,0,NC,1541248200,64,-22.28,166.46,68.0,10.45
463,ugoofaaru,44,MV,1541250569,100,5.67,73.0,82.99,4.85
464,codrington,12,AU,1541250570,66,-28.95,153.24,72.95,5.64
465,new port richey,75,US,1541248500,87,28.24,-82.72,62.06,10.29
466,faanui,12,PF,1541250570,100,-16.48,-151.75,79.57,10.38
467,byron bay,12,AU,1541248200,78,-28.65,153.62,73.4,13.87
468,touros,64,BR,1541250571,72,-5.2,-35.46,84.25,15.59
469,merritt island,1,US,1541246580,85,28.54,-80.67,64.22,9.17
470,diffa,24,NE,1541250571,19,13.32,12.61,98.92,9.89
471,maputo,40,MZ,1541246400,47,-25.97,32.57,78.8,11.41
472,les escoumins,100,CA,1541250572,99,48.35,-69.4,34.97,7.36
473,sulangan,64,PH,1541250572,100,11.14,123.72,83.8,16.87
